<?xml version="1.0" encoding="UTF-8"?>
<RegionChildren:regionchildren xsi:schemaLocation="http://www.zillow.com/static/xsd/RegionChildren.xsd https://www.zillowstatic.com/vstatic/56a6020/static/xsd/RegionChildren.xsd" xmlns:xsi="http://www.w3.org/2001/XMLSchema-instance" xmlns:RegionChildren="http://www.zillow.com/static/xsd/RegionChildren.xsd"><request><state>la</state><city>batonrouge</city><childtype>neighborhood</childtype></request><message><text>Request successfully processed</text><code>0</code></message><response><region><id>44055</id><latitude>30.463857</latitude><longitude>-91.078001</longitude></region><subregiontype>neighborhood</subregiontype><list><count>61</count><region><id>151756</id><name>Gardere</name><url>http://www.zillow.com/local-info/LA-Baton-Rouge/Gardere/r_151756/</url><latitude>30.358142</latitude><longitude>-91.135268</longitude></region><region><id>152578</id><name>Merrydale</name><url>http://www.zillow.com/local-info/LA-Baton-Rouge/Merrydale/r_152578/</url><latitude>30.499867</latitude><longitude>-91.107654</longitude></region><region><id>152824</id><name>Oak Hills Place</name><url>http://www.zillow.com/local-info/LA-Baton-Rouge/Oak-Hills-Place/r_152824/</url><latitude>30.369693</latitude><longitude>-91.087765</longitude></region><region><id>153683</id><name>Village Saint George</name><url>http://www.zillow.com/local-info/LA-Baton-Rouge/Village-Saint-George/r_153683/</url><latitude>30.361792</latitude><longitude>-91.066302</longitude></region><region><id>152863</id><name>Old Jefferson</name><url>http://www.zillow.com/local-info/LA-Baton-Rouge/Old-Jefferson/r_152863/</url><latitude>30.374028</latitude><longitude>-91.010425</longitude></region><region><id>151027</id><name>Brownfields</name><url>http://www.zillow.com/local-info/LA-Baton-Rouge/Brownfields/r_151027/</url><latitude>30.543988</latitude><longitude>-91.125738</longitude></region><region><id>135646</id><name>Tara</name><url>http://www.zillow.com/local-info/LA-Baton-Rouge/Tara/r_135646/</url><latitude>30.441806</latitude><longitude>-91.096342</longitude></region><region><id>40792</id><name>Scotlandville</name><url>http://www.zillow.com/local-info/LA-Baton-Rouge/Scotlandville/r_40792/</url><latitude>30.526864</latitude><longitude>-91.163697</longitude></region><region><id>110229</id><name>Pollard</name><url>http://www.zillow.com/local-info/LA-Baton-Rouge/Pollard/r_110229/</url><latitude>30.399233</latitude><longitude>-91.123527</longitude></region><region><id>152605</id><name>Millerville</name><url>http://www.zillow.com/local-info/LA-Baton-Rouge/Millerville/r_152605/</url><latitude>30.45239</latitude><longitude>-91.002862</longitude></region><region><id>22649</id><name>Zion City</name><url>http://www.zillow.com/local-info/LA-Baton-Rouge/Zion-City/r_22649/</url><latitude>30.513881</latitude><longitude>-91.117574</longitude></region><region><id>152218</id><name>Kleinpeter</name><url>http://www.zillow.com/local-info/LA-Baton-Rouge/Kleinpeter/r_152218/</url><latitude>30.364441</latitude><longitude>-91.033714</longitude></region><region><id>152160</id><name>Jones Creek</name><url>http://www.zillow.com/local-info/LA-Baton-Rouge/Jones-Creek/r_152160/</url><latitude>30.41472</latitude><longitude>-91.047158</longitude></region><region><id>152128</id><name>Istrouma</name><url>http://www.zillow.com/local-info/LA-Baton-Rouge/Istrouma/r_152128/</url><latitude>30.479116</latitude><longitude>-91.162887</longitude></region><region><id>152115</id><name>Inniswold</name><url>http://www.zillow.com/local-info/LA-Baton-Rouge/Inniswold/r_152115/</url><latitude>30.393505</latitude><longitude>-91.073571</longitude></region><region><id>151824</id><name>Goodwood</name><url>http://www.zillow.com/local-info/LA-Baton-Rouge/Goodwood/r_151824/</url><latitude>30.4423</latitude><longitude>-91.126173</longitude></region><region><id>153387</id><name>Smiley Heights</name><url>http://www.zillow.com/local-info/LA-Baton-Rouge/Smiley-Heights/r_153387/</url><latitude>30.461062</latitude><longitude>-91.121154</longitude></region><region><id>151529</id><name>Eden Park</name><url>http://www.zillow.com/local-info/LA-Baton-Rouge/Eden-Park/r_151529/</url><latitude>30.460584</latitude><longitude>-91.147272</longitude></region><region><id>151431</id><name>Delmont Place</name><url>http://www.zillow.com/local-info/LA-Baton-Rouge/Delmont-Place/r_151431/</url><latitude>30.493433</latitude><longitude>-91.155139</longitude></region><region><id>151266</id><name>College Town</name><url>http://www.zillow.com/local-info/LA-Baton-Rouge/College-Town/r_151266/</url><latitude>30.399837</latitude><longitude>-91.164608</longitude></region><region><id>151031</id><name>Brownsfield</name><url>http://www.zillow.com/local-info/LA-Baton-Rouge/Brownsfield/r_151031/</url><latitude>30.541658</latitude><longitude>-91.11816</longitude></region><region><id>153338</id><name>Shenandoah</name><url>http://www.zillow.com/local-info/LA-Baton-Rouge/Shenandoah/r_153338/</url><latitude>30.403088</latitude><longitude>-90.993548</longitude></region><region><id>151016</id><name>Brookstown</name><url>http://www.zillow.com/local-info/LA-Baton-Rouge/Brookstown/r_151016/</url><latitude>30.498505</latitude><longitude>-91.13724</longitude></region><region><id>151010</id><name>Broadmoor</name><url>http://www.zillow.com/local-info/LA-Baton-Rouge/Broadmoor/r_151010/</url><latitude>30.444109</latitude><longitude>-91.080589</longitude></region><region><id>155586</id><name>Sherwood Forest</name><url>http://www.zillow.com/local-info/LA-Baton-Rouge/Sherwood-Forest/r_155586/</url><latitude>30.448488</latitude><longitude>-91.052988</longitude></region><region><id>158566</id><name>Forest Heights</name><url>http://www.zillow.com/local-info/LA-Baton-Rouge/Forest-Heights/r_158566/</url><latitude>30.507316</latitude><longitude>-91.083715</longitude></region><region><id>213914</id><name>Nicholson</name><url>http://www.zillow.com/local-info/LA-Baton-Rouge/Nicholson/r_213914/</url><latitude>30.336474</latitude><longitude>-91.080306</longitude></region><region><id>250615</id><name>Fairwood</name><url>http://www.zillow.com/local-info/LA-Baton-Rouge/Fairwood/r_250615/</url><latitude>30.440895</latitude><longitude>-91.040876</longitude></region><region><id>267629</id><name>Jefferson</name><url>http://www.zillow.com/local-info/LA-Baton-Rouge/Jefferson/r_267629/</url><latitude>30.367657</latitude><longitude>-90.972005</longitude></region><region><id>264027</id><name>Kenilworth</name><url>http://www.zillow.com/local-info/LA-Baton-Rouge/Kenilworth/r_264027/</url><latitude>30.382084</latitude><longitude>-91.124889</longitude></region><region><id>263663</id><name>Valley Park</name><url>http://www.zillow.com/local-info/LA-Baton-Rouge/Valley-Park/r_263663/</url><latitude>30.424905</latitude><longitude>-91.144</longitude></region><region><id>259374</id><name>Baker</name><url>http://www.zillow.com/local-info/LA-Baton-Rouge/Baker/r_259374/</url><latitude>30.562163</latitude><longitude>-91.173465</longitude></region><region><id>273266</id><name>City Park</name><url>http://www.zillow.com/local-info/LA-Baton-Rouge/City-Park/r_273266/</url><latitude>30.431848</latitude><longitude>-91.159814</longitude></region><region><id>271784</id><name>Southside</name><url>http://www.zillow.com/local-info/LA-Baton-Rouge/Southside/r_271784/</url><latitude>30.417147</latitude><longitude>-91.156175</longitude></region><region><id>274519</id><name>Mid City</name><url>http://www.zillow.com/local-info/LA-Baton-Rouge/Mid-City/r_274519/</url><latitude>30.441905</latitude><longitude>-91.151406</longitude></region><region><id>274450</id><name>Mayfair</name><url>http://www.zillow.com/local-info/LA-Baton-Rouge/Mayfair/r_274450/</url><latitude>30.378951</latitude><longitude>-91.107942</longitude></region><region><id>396242</id><name>Westminster</name><url>http://www.zillow.com/local-info/LA-Baton-Rouge/Westminster/r_396242/</url><latitude>30.404099</latitude><longitude>-91.093939</longitude></region><region><id>753746</id><name>South Campus</name><url>http://www.zillow.com/local-info/LA-Baton-Rouge/South-Campus/r_753746/</url><latitude>30.369941</latitude><longitude>-91.205788</longitude></region><region><id>753744</id><name>Highland-Perkins</name><url>http://www.zillow.com/local-info/LA-Baton-Rouge/Highland--Perkins/r_753744/</url><latitude>30.36798</latitude><longitude>-91.079832</longitude></region><region><id>753743</id><name>Woodstone</name><url>http://www.zillow.com/local-info/LA-Baton-Rouge/Woodstone/r_753743/</url><latitude>30.389674</latitude><longitude>-91.140661</longitude></region><region><id>753742</id><name>Woodchase</name><url>http://www.zillow.com/local-info/LA-Baton-Rouge/Woodchase/r_753742/</url><latitude>30.408414</latitude><longitude>-91.142587</longitude></region><region><id>753741</id><name>LSU</name><url>http://www.zillow.com/local-info/LA-Baton-Rouge/LSU/r_753741/</url><latitude>30.412863</latitude><longitude>-91.179362</longitude></region><region><id>753740</id><name>Old South Baton Rouge</name><url>http://www.zillow.com/local-info/LA-Baton-Rouge/Old-South-Baton-Rouge/r_753740/</url><latitude>30.43263</latitude><longitude>-91.182206</longitude></region><region><id>753739</id><name>Bocage</name><url>http://www.zillow.com/local-info/LA-Baton-Rouge/Bocage/r_753739/</url><latitude>30.418171</latitude><longitude>-91.119685</longitude></region><region><id>753738</id><name>O'Neal</name><url>http://www.zillow.com/local-info/LA-Baton-Rouge/O'Neal/r_753738/</url><latitude>30.425257</latitude><longitude>-90.991308</longitude></region><region><id>753737</id><name>Drusilla</name><url>http://www.zillow.com/local-info/LA-Baton-Rouge/Drusilla/r_753737/</url><latitude>30.418836</latitude><longitude>-91.085024</longitude></region><region><id>753736</id><name>Stevendale</name><url>http://www.zillow.com/local-info/LA-Baton-Rouge/Stevendale/r_753736/</url><latitude>30.462355</latitude><longitude>-91.012507</longitude></region><region><id>753735</id><name>North Sherwood Forest</name><url>http://www.zillow.com/local-info/LA-Baton-Rouge/North-Sherwood-Forest/r_753735/</url><latitude>30.465548</latitude><longitude>-91.052583</longitude></region><region><id>753734</id><name>Cortana</name><url>http://www.zillow.com/local-info/LA-Baton-Rouge/Cortana/r_753734/</url><latitude>30.46255</latitude><longitude>-91.088394</longitude></region><region><id>753733</id><name>Goodwood Homesites</name><url>http://www.zillow.com/local-info/LA-Baton-Rouge/Goodwood-Homesites/r_753733/</url><latitude>30.461432</latitude><longitude>-91.109191</longitude></region><region><id>753732</id><name>Downtown East</name><url>http://www.zillow.com/local-info/LA-Baton-Rouge/Downtown-East/r_753732/</url><latitude>30.449375</latitude><longitude>-91.173323</longitude></region><region><id>753731</id><name>Downtown</name><url>http://www.zillow.com/local-info/LA-Baton-Rouge/Downtown/r_753731/</url><latitude>30.460138</latitude><longitude>-91.180084</longitude></region><region><id>753730</id><name>Fairfields</name><url>http://www.zillow.com/local-info/LA-Baton-Rouge/Fairfields/r_753730/</url><latitude>30.461658</latitude><longitude>-91.161527</longitude></region><region><id>753729</id><name>East Fairfields</name><url>http://www.zillow.com/local-info/LA-Baton-Rouge/East-Fairfields/r_753729/</url><latitude>30.460868</latitude><longitude>-91.133739</longitude></region><region><id>753728</id><name>North Baton Rouge</name><url>http://www.zillow.com/local-info/LA-Baton-Rouge/North-Baton-Rouge/r_753728/</url><latitude>30.476841</latitude><longitude>-91.133378</longitude></region><region><id>753727</id><name>Southern University</name><url>http://www.zillow.com/local-info/LA-Baton-Rouge/Southern-University/r_753727/</url><latitude>30.516352</latitude><longitude>-91.193176</longitude></region><region><id>753726</id><name>Legion Village</name><url>http://www.zillow.com/local-info/LA-Baton-Rouge/Legion-Village/r_753726/</url><latitude>30.504162</latitude><longitude>-91.160996</longitude></region><region><id>753725</id><name>Victoria Farms</name><url>http://www.zillow.com/local-info/LA-Baton-Rouge/Victoria-Farms/r_753725/</url><latitude>30.489707</latitude><longitude>-91.109185</longitude></region><region><id>753724</id><name>Park Forest-Oakcrest</name><url>http://www.zillow.com/local-info/LA-Baton-Rouge/Park-Forest--Oakcrest/r_753724/</url><latitude>30.482481</latitude><longitude>-91.085413</longitude></region><region><id>12810</id><name>Monticello</name><url>http://www.zillow.com/local-info/LA-Baton-Rouge/Monticello/r_12810/</url><latitude>30.489175</latitude><longitude>-91.046224</longitude></region><region><id>753745</id><name>South Burbank</name><url>http://www.zillow.com/local-info/LA-Baton-Rouge/South-Burbank/r_753745/</url><latitude>30.365879</latitude><longitude>-91.139917</longitude></region></list></response></RegionChildren:regionchildren>
<!-- H:022  T:652ms  S:6037  R:Fri Feb 23 11:09:31 PST 2018  B:5.0.52241-master.96c9bd5~delivery_ready.958c843 -->